{
"type": "FeatureCollection",
"name": "locations",
"crs": { "type": "name", "properties": { "name": "urn:ogc:def:crs:OGC:1.3:CRS84" } },
"features": [
{ "type": "Feature", "properties": { "name": "BirdsOfAmerica", "latitude": "38.045070149377445", "longitude": "-84.49768156893147", "description": "Mural of the birds of American next to the Lexington transit center", "media": "Haiku1.jpg", "link": "https://www.instagram.com/p/CSZsY2dHKqM/" }, "geometry": { "type": "Point", "coordinates": [ -84.497681568931469, 38.045070149377445 ] } },
{ "type": "Feature", "properties": { "name": "LincolnsJudgement", "latitude": "38.04403463839335", "longitude": "-84.49562963161135", "description": "Murals Of Lincoln across the lexington transit center", "media": "Haikus2.jpg", "link": "https://www.instagram.com/p/CSZsaLfn4Ij/" }, "geometry": { "type": "Point", "coordinates": [ -84.495629631611351, 38.044034638393349 ] } },
{ "type": "Feature", "properties": { "name": "MusicInTheCity", "latitude": "38.0429498", "longitude": "-84.4952144", "description": "Murals of music next to the transit center", "media": "Haikus3.jpg", "link": "https://www.instagram.com/p/CSZsb3QH1Wp/" }, "geometry": { "type": "Point", "coordinates": [ -84.4952144, 38.0429498 ] } },
{ "type": "Feature", "properties": { "name": "Media Center", "latitude": "38.0316575", "longitude": "-84.5020813", "description": "If You Need Help With Video Recordings", "media": "Media_Center.jpg", "link": "https://www.tiktok.com/@andrew_box/video/6994807194285870342?lang=en&is_copy_url=1&is_from_webapp=v1" }, "geometry": { "type": "Point", "coordinates": [ -84.502031927825996, 38.033213529366144 ] } },
{ "type": "Feature", "properties": { "name": "Presentation Center", "latitude": "38.0316575", "longitude": "-84.5020813", "description": "If You Need Help With Presentations And Being Comfortable", "media": "Presentation_Center.jpg", "link": "https://www.tiktok.com/@andrew_box/video/6994806994066492678?lang=en&is_copy_url=1&is_from_webapp=v1" }, "geometry": { "type": "Point", "coordinates": [ -84.502096303244613, 38.032568841823107 ] } },
{ "type": "Feature", "properties": { "name": "Lynagh's Irish Pub", "latitude": " 38.0345744", "longitude": " -84.4952844", "description": "A fun place to spend Friday nights", "media": "lynaghs.jpg", "link": "https://lynaghs.com/" }, "geometry": { "type": "Point", "coordinates": [ -84.4952844, 38.0345744 ] } },
{ "type": "Feature", "properties": { "name": "GirlsGirlsGirls", "latitude": " 38.0418419", "longitude": "-84.5033993", "description": "The best food and atmosphere", "media": "girlsgirlsgirls.jpg", "link": "  https://www.girlsgirlsgirlsburritos.com/" }, "geometry": { "type": "Point", "coordinates": [ -84.5033993, 38.0418419 ] } },
{ "type": "Feature", "properties": { "name": "Fayette Mall", "latitude": " 37.9876287", "longitude": "-84.5250114", "description": "A fun place to spend time with friends", "media": "fayettemall.jpg", "link": " https://www.shopfayette-mall.com/" }, "geometry": { "type": "Point", "coordinates": [ -84.527709828245861, 37.989930470688442 ] } },
{ "type": "Feature", "properties": { "name": "The Summit", "latitude": " 37.9774987", "longitude": "-84.5207393", "description": "A fun outdoor shopping center", "media": "thesummit.jpg", "link": " https://thesummitatfritzfarm.com/" }, "geometry": { "type": "Point", "coordinates": [ -84.527181689413879, 37.977631551717224 ] } },
{ "type": "Feature", "properties": { "name": "Lexlive", "latitude": " 38.0482246", "longitude": "-84.5003406", "description": "Arcade - bowling - and movies!", "media": "lexlive.jpg", "link": " https://www.lexlive.com/" }, "geometry": { "type": "Point", "coordinates": [ -84.5003406, 38.0482246 ] } },
{ "type": "Feature", "properties": { "name": "Trader Joes", "latitude": " 38.0056095", "longitude": "-84.5151053", "description": "The best place in town", "media": "traderjoes.jpg", "link": " https://locations.traderjoes.com/ksxsy/lexington/627/" }, "geometry": { "type": "Point", "coordinates": [ -84.518296102327952, 38.004884125624848 ] } },
{ "type": "Feature", "properties": { "name": "Waffle House", "latitude": "38.0157296", "longitude": "-84.5536055", "description": "Late night breakfast", "media": "BigT-Waffle.jpg", "link": "https://www.instagram.com/p/CSZwalHr1MR/" }, "geometry": { "type": "Point", "coordinates": [ -84.5536055, 38.0157296 ] } },
{ "type": "Feature", "properties": { "name": "Parkette", "latitude": "38.0311822", "longitude": "-84.4555027", "description": "Drive-In diner", "media": "BigT-Parkette.jpg", "link": "https://www.instagram.com/p/CSZwbtWLhwc/" }, "geometry": { "type": "Point", "coordinates": [ -84.4555027, 38.0311822 ] } },
{ "type": "Feature", "properties": { "name": "Bluedoor", "latitude": "38.0399643", "longitude": "-84.4830234", "description": "Barbecue goodness in Lex", "media": "BigT-Bluedoor.jpg", "link": "https://www.instagram.com/p/CSZwcY9rCfJ/" }, "geometry": { "type": "Point", "coordinates": [ -84.4830234, 38.0399643 ] } },
{ "type": "Feature", "properties": { "name": "Canes", "latitude": "38.0424697", "longitude": "-84.5041687", "description": "best_chicken_fingers", "media": "canes.jpeg", "link": "https://www.raisingcanes.com/" }, "geometry": { "type": "Point", "coordinates": [ -84.5041687, 38.0424697 ] } },
{ "type": "Feature", "properties": { "name": "Mcdonalds", "latitude": "38.04239", "longitude": "-84.5031209", "description": "fast_and_cheap", "media": "Mcdonalds.jpeg", "link": "https://www.mcdonalds.com/us/en-us/location/ky/lexington/357-s-limestone-ave/4819.html?cid=RF:YXT:GMB::Clicks" }, "geometry": { "type": "Point", "coordinates": [ -84.5031209, 38.04239 ] } },
{ "type": "Feature", "properties": { "name": "Insomnia", "latitude": "38.04322", "longitude": "-84.502809", "description": "late_night_snack", "media": "insomnia.jpeg", "link": "https://insomniacookies.com/shipping?gclsrc=aw.ds&gclid=EAIaIQobChMIrMjhtMWk8gIVylByCh2bCQdPEAAYASAAEgIMavD_BwE" }, "geometry": { "type": "Point", "coordinates": [ -84.502809, 38.04322 ] } },
{ "type": "Feature", "properties": { "name": "Graeter's Ice Cream", "latitude": "38.0292309", "longitude": "-84.4917844", "description": "cold sweet treats", "media": "Graeters.jpg", "link": "https://www.instagram.com/p/CSX11UtgJof/" }, "geometry": { "type": "Point", "coordinates": [ -84.490377541884484, 38.029185697163413 ] } },
{ "type": "Feature", "properties": { "name": "Joella's Hot Chicken", "latitude": "38.0277456", "longitude": "-84.4921488", "description": "best chicken in lex", "media": "Joellas.jpg", "link": "https://www.instagram.com/p/CSX10SLAhd9/" }, "geometry": { "type": "Point", "coordinates": [ -84.490158544048256, 38.027805652583027 ] } },
{ "type": "Feature", "properties": { "name": "Bourbon n' Toulouse", "latitude": "38.0297934", "longitude": "-84.4927232", "description": "authentic cajun meals", "media": "Bourbon.jpg", "link": "https://www.instagram.com/p/CSX1zRCgRwY/" }, "geometry": { "type": "Point", "coordinates": [ -84.49048428931448, 38.029820567083028 ] } },
{ "type": "Feature", "properties": { "name": "BLM Mural", "latitude": "38.0492552", "longitude": "-84.4989356", "description": "Paint and words combined <br>equality on the streets <br>shameless hope and love", "media": "blmmural.jpg", "link": "https://www.instagram.com/p/CSZl_2BHZ4v/" }, "geometry": { "type": "Point", "coordinates": [ -84.4989356, 38.0492552 ] } },
{ "type": "Feature", "properties": { "name": "Cityscape", "latitude": "38.0423612", "longitude": "-84.4823224", "description": "Cast a light upon <br>the unique downtown culture <br>one-of-a-kind art.", "media": "cityscapemural.jpg", "link": "https://www.instagram.com/p/CSZl5OinvBT/" }, "geometry": { "type": "Point", "coordinates": [ -84.4823224, 38.0423612 ] } },
{ "type": "Feature", "properties": { "name": "Animals Personified", "latitude": "38.0490076", "longitude": "-84.4936894", "description": "Beautiful women <br>once majestic animals <br>painted with bold strokes.", "media": "animalpersonified.jpg", "link": "https://www.instagram.com/p/CSZmIe-H94u/" }, "geometry": { "type": "Point", "coordinates": [ -84.4936894, 38.0490076 ] } },
{ "type": "Feature", "properties": { "name": "Two Lovers", "latitude": "38.0474697", "longitude": "-84.4968775", "description": "Asleep on a desk <br>a feeling of belonging <br>two souls intertwined.", "media": "twolovers.jpg", "link": "https://www.instagram.com/p/CSZlqTSnJzd/" }, "geometry": { "type": "Point", "coordinates": [ -84.4968775, 38.0474697 ] } },
{ "type": "Feature", "properties": { "name": "Third Street Stuff Walls", "latitude": "38.0493992", "longitude": "-84.4931055", "description": "Vibrant and unique <br>walls painted with careful strokes <br>wafting cafe smells.", "media": "thirdstreetstuff.jpg", "link": "https://www.instagram.com/p/CSZlyWAnX7I/" }, "geometry": { "type": "Point", "coordinates": [ -84.4931055, 38.0493992 ] } },
{ "type": "Feature", "properties": { "name": "The Hive", "latitude": "38.0446637", "longitude": "-84.4935359", "description": "A flurry of strokes <br>what is this peculiar place? <br>colorful whimsy.", "media": "thehive.jpg", "link": "https://www.instagram.com/p/CSZlke0Hycm/" }, "geometry": { "type": "Point", "coordinates": [ -84.49131241532649, 38.044646952483944 ] } },
{ "type": "Feature", "properties": { "name": "Woodland Glen IV", "latitude": " 38.02888570204991", "longitude": " -84.49980940202373", "description": "A great place to live with your friends", "media": "WoodlandglenIVphoto.jpg", "link": "https://www.instagram.com/p/CSXJgKDLgBf/?utm_source=ig_web_copy_link" }, "geometry": { "type": "Point", "coordinates": [ -84.499809402023729, 38.028885702049912 ] } },
{ "type": "Feature", "properties": { "name": "Rupp Arena", "latitude": " 38.049503295722495", "longitude": " -84.50251187318807", "description": "The best place to watch basketball", "media": "RuppArena.jpg", "link": "https://www.instagram.com/p/CSZsTicrL7w/?utm_source=ig_web_copy_link" }, "geometry": { "type": "Point", "coordinates": [ -84.50251187318807, 38.049503295722495 ] } },
{ "type": "Feature", "properties": { "name": "William T. Young Library", "latitude": " 38.03300189125092", "longitude": " -84.50169548668282", "description": "A great place to go study with friends", "media": "WilliamTYoungLibrary.jpg", "link": "https://www.instagram.com/p/CSZsXXBrfhY/?utm_source=ig_web_copy_link" }, "geometry": { "type": "Point", "coordinates": [ -84.50168705951198, 38.032894808143929 ] } },
{ "type": "Feature", "properties": { "name": "papa_johns", "latitude": "38.0321162", "longitude": "-84.5033064", "description": "pizza", "media": "papa_johns.jpg", "link": " https://www.papajohns.com/" }, "geometry": { "type": "Point", "coordinates": [ -84.501714053409486, 38.031154658018643 ] } },
{ "type": "Feature", "properties": { "name": "chick_fil_a", "latitude": "38.0312002", "longitude": "-84.5046738", "description": "best_chicken", "media": "chick_fil_a.jpg", "link": "https://www.chick-fil-a.com/locations/ky/university-of-kentucky-the-90" }, "geometry": { "type": "Point", "coordinates": [ -84.503517412058656, 38.040190622294752 ] } },
{ "type": "Feature", "properties": { "name": "zen_sushi", "latitude": "38.0314796", "longitude": "-84.5021202", "description": "sushi_lover", "media": "sushi.jpg", "link": "https://www.zenlexington.com/" }, "geometry": { "type": "Point", "coordinates": [ -84.5021202, 38.0314796 ] } },
{ "type": "Feature", "properties": { "name": "Kroger Field", "latitude": " 38.0227518", "longitude": "-84.5073649", "description": "UK Football", "media": "Kroger.jpg", "link": "https://www.instagram.com/p/CSZx-MLrr_C/" }, "geometry": { "type": "Point", "coordinates": [ -84.5073649, 38.0227518 ] } },
{ "type": "Feature", "properties": { "name": "Baseball Pavillion", "latitude": " 38.0276885", "longitude": "-84.5000447", "description": "UK Baseball", "media": "Baseball.jpg", "link": "https://www.instagram.com/p/CSZx-MLrr_C/" }, "geometry": { "type": "Point", "coordinates": [ -84.5000447, 38.0276885 ] } },
{ "type": "Feature", "properties": { "name": "Hillary J. Boone", "latitude": " 38.0270384", "longitude": "-84.5039867", "description": "Tennis Courts", "media": "HJB.jpg", "link": "https://www.instagram.com/p/CSZx-MLrr_C/" }, "geometry": { "type": "Point", "coordinates": [ -84.503798506669099, 38.027606561384921 ] } },
{ "type": "Feature", "properties": { "name": "Local taco", "latitude": " 38.0431686", "longitude": "-84.5017866", "description": "Relaxing, Spicy, Trendy and chill", "media": "Local_Taco.jpg", "link": "https://www.instagram.com/p/CSZs1y3A3Q3/" }, "geometry": { "type": "Point", "coordinates": [ -84.5017866, 38.0431686 ] } },
{ "type": "Feature", "properties": { "name": "willy T satrbucks", "latitude": " 38.0326429", "longitude": "-84.5015191", "description": "The quiet spot for students to learn/study", "media": "Willy_T_Starbys.jpg", "link": "https://www.instagram.com/p/CSZs3i-gakr/" }, "geometry": { "type": "Point", "coordinates": [ -84.501310003488669, 38.032568841823114 ] } },
{ "type": "Feature", "properties": { "name": "Sumo Hibachi and Sushi", "latitude": " 38.0369562", "longitude": "-84.5155733", "description": "Expeirence the cultural and different food of sushi", "media": "Sumo_Hibachi_&_Sushi.jpg", "link": "https://www.instagram.com/p/CSZs5LogdnA/" }, "geometry": { "type": "Point", "coordinates": [ -84.5155733, 38.0369562 ] } },
{ "type": "Feature", "properties": { "name": "Skyline", "latitude": "38.0072326", "longitude": "-84.4553365", "description": "Unique Cincinati chain that contains one of a kind chili", "media": "skyline.jpg", "link": "https://www.instagram.com/p/CSX1KmEg4pR/" }, "geometry": { "type": "Point", "coordinates": [ -84.453195305454727, 38.007339160606527 ] } },
{ "type": "Feature", "properties": { "name": "Girlsgirlsgirls Burritos", "latitude": " 38.0417922", "longitude": "-84.506075", "description": "unique stylistic and customizable burritos", "media": "girls.jpg", "link": "https://www.instagram.com/p/CSX1AppAOhV/" }, "geometry": { "type": "Point", "coordinates": [ -84.50363421090465, 38.041708413236805 ] } },
{ "type": "Feature", "properties": { "name": "Carson's Food & Drink", "latitude": " 38.0417114", "longitude": "-84.4944065", "description": "Rustic, relaxing family friendly spot to grab a bite to ea and watch your fav sports team", "media": "carsons.jpg", "link": "https://www.instagram.com/p/CSZs3gzA4BV/" }, "geometry": { "type": "Point", "coordinates": [ -84.492192168804024, 38.041722811797825 ] } },
{ "type": "Feature", "properties": { "name": "Ginger Wasabi Sushi & Grill", "latitude": " 38.0436233", "longitude": "-84.5036096", "description": "Affordable food full of protein and vitamins", "media": "sushi2.jpg", "link": "https://www.instagram.com/p/CSX1G0BACg1/" }, "geometry": { "type": "Point", "coordinates": [ -84.501342990408958, 38.043566779787035 ] } },
{ "type": "Feature", "properties": { "name": "DV8 Kitchen", "latitude": "38.0399344", "longitude": "-84.5168438", "description": "delicous baked goods cooked by people who are looking for a second chance opportunity", "media": "Dv8.jpg", "link": "https://www.instagram.com/p/CSX1NLnAkcO/" }, "geometry": { "type": "Point", "coordinates": [ -84.514625740643652, 38.039800327349106 ] } },
{ "type": "Feature", "properties": { "name": "Cook Out", "latitude": " 38.0403599", "longitude": "-84.5157538", "description": "Open 24/7 with yummy burgers shakes and more", "media": "cookout.jpg", "link": "https://www.instagram.com/p/CSX1JmGg85T/" }, "geometry": { "type": "Point", "coordinates": [ -84.513542699296096, 38.040304553105564 ] } },
{ "type": "Feature", "properties": { "name": "Thursday Night Live", "latitude": "38.0480212", "longitude": "-84.49821", "description": "Get your Rock 'n Roll on.", "media": "boyd-rock.jpg", "link": "https://www.tiktok.com/@boyd.lex/video/6993095061537852678?is_copy_url=0&is_from_webapp=v1&sender_device=pc&sender_web_id=6977039185053042182" }, "geometry": { "type": "Point", "coordinates": [ -84.49821, 38.0480212 ] } },
{ "type": "Feature", "properties": { "name": "Arboretum Woods", "latitude": "38.0147466", "longitude": "-84.5102961", "description": "Wander to wonder.", "media": "boyd-woods.jpg", "link": "https://www.tiktok.com/@boyd.lex/video/6993812473883233542?is_copy_url=0&is_from_webapp=v1&sender_device=pc&sender_web_id=6977039185053042182" }, "geometry": { "type": "Point", "coordinates": [ -84.5102961, 38.0147466 ] } },
{ "type": "Feature", "properties": { "name": "The Great Lawn", "latitude": "38.0170196", "longitude": "-84.4981217", "description": "The field to explore rocket launches.", "media": "boyd-rocket.jpg", "link": "https://www.tiktok.com/@boyd.lex/video/6993819308627348741?is_copy_url=0&is_from_webapp=v1&sender_device=pc&sender_web_id=6977039185053042182" }, "geometry": { "type": "Point", "coordinates": [ -84.4981217, 38.0170196 ] } },
{ "type": "Feature", "properties": { "name": "Old School Coffee", "description": "Made for champions", "media": "Old_School_Coffee.jpeg", "link": "https://www.instagram.com/p/CSXIqberO8X/" }, "geometry": { "type": "Point", "coordinates": [ -84.5028681, 38.0452096 ] } },
{ "type": "Feature", "properties": { "name": "A Cup of Commonwealth", "description": "Bleed blue", "media": "Cup_Of_Commonwealth.jpeg", "link": "https://www.instagram.com/p/CSXO2xkrx7r/" }, "geometry": { "type": "Point", "coordinates": [ -84.4914141, 38.0417305 ] } },
{ "type": "Feature", "properties": { "name": "Chocolate Holler", "description": "Wildcat favorite", "media": "Chocolate_Holler.jpeg", "link": "https://www.instagram.com/p/CSZq_YxL6VR/" }, "geometry": { "type": "Point", "coordinates": [ -84.4925852, 38.0401013 ] } },
{ "type": "Feature", "properties": { "name": "Johnson Center", "latitude": "38.027715", "longitude": "-84.5038447", "description": "The Better Gym.", "media": "JohnsonCenter.jpg", "link": "https://www.instagram.com/p/CSXPup8rXpF/?utm_source=ig_web_copy_link" }, "geometry": { "type": "Point", "coordinates": [ -84.5038447, 38.027715 ] } },
{ "type": "Feature", "properties": { "name": "Esports Lounge", "latitude": "38.04149776", "longitude": "-84.50418688", "description": "Gamers Paradise.", "media": "EsportsLounge.jpg", "link": "https://www.instagram.com/p/CSXP2o_rEmH/?utm_source=ig_web_copy_link" }, "geometry": { "type": "Point", "coordinates": [ -84.50418688, 38.04149776 ] } },
{ "type": "Feature", "properties": { "name": "Blue Courts", "latitude": "38.0270253", "longitude": "-84.5030386", "description": "Where All Stars Are Made.", "media": "BlueCourts.jpg", "link": "https://www.instagram.com/p/CSXPz1Rrlm1/?utm_source=ig_web_copy_link" }, "geometry": { "type": "Point", "coordinates": [ -84.5030386, 38.0270253 ] } },
{ "type": "Feature", "properties": { "name": "human bean", "latitude": "  38.0271564", "longitude": "-84.5332683", "description": "human bean drive thru", "media": "sophie-coffee.jpg", "link": " https://www.instagram.com/p/CScF3qqrvcd/?utm_source=ig_web_copy_link" }, "geometry": { "type": "Point", "coordinates": [ -84.5332683, 38.0271564 ] } },
{ "type": "Feature", "properties": { "name": "north lime donuts and coffee", "latitude": " 38.0575659", "longitude": "-84.4815749", "description": "outside north lime", "media": "sophie-donuts.jpg", "link": "https://www.instagram.com/p/CScF5QQLWRH/?utm_source=ig_web_copy_link" }, "geometry": { "type": "Point", "coordinates": [ -84.4815749, 38.0575659 ] } },
{ "type": "Feature", "properties": { "name": "Nate's coffee", "latitude": " 38.0483628", "longitude": "-84.4981836", "description": "Outside of nate's coffee", "media": "sophie-Nate.jpg", "link": "https://www.instagram.com/p/CScF6QorLOY/?utm_source=ig_web_copy_link" }, "geometry": { "type": "Point", "coordinates": [ -84.4981836, 38.0483628 ] } }
]
}
